[
  {
    "id": 1,
    "location": "New York, USA (Home)",
    "coordinates": [-74.0060, 40.7128],
    "date": "2017-06-24",
    "type": "home"
  },
  {
    "id": 2,
    "location": "Pakistan",
    "coordinates": [73.0479, 33.6844], 
    "date": "2017-06-24 - 2017-07-08",
    "type": "trip"
  },
  {
    "id": 3,
    "location": "New York, USA (Home)",
    "coordinates": [-74.0060, 40.7128],
    "date": "2017-07-08",
    "type": "home"
  },
  {
    "id": 4,
    "location": "Canada",
    "coordinates": [-79.3832, 43.6532], 
    "date": "2021-11-14 - 2021-12-04",
    "type": "trip"
  },
  {
    "id": 5,
    "location": "Pakistan",
    "coordinates": [73.0479, 33.6844],
    "date": "2021-12-05 - 2022-01-08",
    "type": "trip"
  },
  {
    "id": 6,
    "location": "New York, USA (Home)",
    "coordinates": [-74.0060, 40.7128],
    "date": "2022-01-08",
    "type": "home"
  },
  {
    "id": 7,
    "location": "Canada",
    "coordinates": [-79.3832, 43.6532],
    "date": "2022-02-08 - 2022-02-27",
    "type": "trip"
  },
  {
    "id": 8,
    "location": "New York, USA (Home)",
    "coordinates": [-74.0060, 40.7128],
    "date": "2022-02-27",
    "type": "home"
  },
  {
    "id": 9,
    "location": "Mexico",
    "coordinates": [-99.1332, 19.4326],
    "date": "2022-04-22 - 2022-05-08",
    "type": "trip"
  },
  {
    "id": 10,
    "location": "New York, USA (Home)",
    "coordinates": [-74.0060, 40.7128],
    "date": "2022-05-08",
    "type": "home"
  },
  {
    "id": 11,
    "location": "Canada",
    "coordinates": [-79.3832, 43.6532],
    "date": "2022-07-29 - 2022-08-28",
    "type": "trip"
  },
  {
    "id": 12,
    "location": "New York, USA (Home)",
    "coordinates": [-74.0060, 40.7128],
    "date": "2022-08-28",
    "type": "home"
  },
  {
    "id": 13,
    "location": "Canada",
    "coordinates": [-79.3832, 43.6532],
    "date": "2022-10-15 - 2022-12-16",
    "type": "trip"
  },
  {
    "id": 14,
    "location": "Pakistan",
    "coordinates": [73.0479, 33.6844],
    "date": "2022-12-16 - 2023-01-15",
    "type": "trip"
  },
  {
    "id": 15,
    "location": "New York, USA (Home)",
    "coordinates": [-74.0060, 40.7128],
    "date": "2023-01-15",
    "type": "home"
  },
  {
    "id": 16,
    "location": "Mexico",
    "coordinates": [-99.1332, 19.4326],
    "date": "2023-03-16 - 2023-04-02",
    "type": "trip"
  },
  {
    "id": 17,
    "location": "New York, USA (Home)",
    "coordinates": [-74.0060, 40.7128],
    "date": "2023-04-02",
    "type": "home"
  },
  {
    "id": 18,
    "location": "Canada",
    "coordinates": [-79.3832, 43.6532],
    "date": "2023-04-22 - 2023-05-26",
    "type": "trip"
  },
  {
    "id": 19,
    "location": "New York, USA (Home)",
    "coordinates": [-74.0060, 40.7128],
    "date": "2023-05-26",
    "type": "home"
  },
  {
    "id": 20,
    "location": "Canada",
    "coordinates": [-79.3832, 43.6532],
    "date": "2023-07-26 - 2023-09-15",
    "type": "trip"
  },
  {
    "id": 21,
    "location": "New York, USA (Home)",
    "coordinates": [-74.0060, 40.7128],
    "date": "2023-09-15",
    "type": "home"
  },
  {
    "id": 22,
    "location": "Pakistan",
    "coordinates": [73.0479, 33.6844],
    "date": "2023-12-17 - 2024-01-20",
    "type": "trip"
  },
  {
    "id": 23,
    "location": "New York, USA (Home)",
    "coordinates": [-74.0060, 40.7128],
    "date": "2024-01-20",
    "type": "home"
  },
  {
    "id": 24,
    "location": "Canada",
    "coordinates": [-79.3832, 43.6532],
    "date": "2024-01-21 - 2024-02-28",
    "type": "trip"
  },
  {
    "id": 25,
    "location": "New York, USA (Home)",
    "coordinates": [-74.0060, 40.7128],
    "date": "2024-02-28",
    "type": "home"
  },
  {
    "id": 26,
    "location": "Mexico",
    "coordinates": [-99.1332, 19.4326],
    "date": "2024-04-22 - 2024-05-19",
    "type": "trip"
  },
  {
    "id": 27,
    "location": "New York, USA (Home)",
    "coordinates": [-74.0060, 40.7128],
    "date": "2024-05-19",
    "type": "home"
  },
  {
    "id": 28,
    "location": "Canada",
    "coordinates": [-79.3832, 43.6532],
    "date": "2024-07-14 - 2024-09-19",
    "type": "trip"
  },
  {
    "id": 29,
    "location": "New York, USA (Home)",
    "coordinates": [-74.0060, 40.7128],
    "date": "2024-09-19",
    "type": "home"
  },
  {
    "id": 30,
    "location": "Mexico",
    "coordinates": [-99.1332, 19.4326],
    "date": "2025-08-09 - 2025-09-05",
    "type": "trip"
  },
  {
    "id": 31,
    "location": "New York, USA (Home)",
    "coordinates": [-74.0060, 40.7128],
    "date": "2025-09-05",
    "type": "home"
  },
  {
    "id": 32,
    "location": "Canada",
    "coordinates": [-79.3832, 43.6532],
    "date": "2025-11-06 - 2025-11-13",
    "type": "trip"
  },
  {
    "id": 33,
    "location": "New York, USA (Home)",
    "coordinates": [-74.0060, 40.7128],
    "date": "2025-11-13",
    "type": "home"
  },
  {
    "id": 34,
    "location": "London",
    "coordinates": [-0.1276, 51.5074],
    "date": "2025-11-14 - 2025-12-09",
    "type": "trip"
  },
  {
    "id": 35,
    "location": "Pakistan",
    "coordinates": [73.0479, 33.6844],
    "date": "2025-12-10 - 2026-01-11",
    "type": "trip"
  },
  {
    "id": 36,
    "location": "Turkey",
    "coordinates": [28.9784, 41.0082],
    "date": "2026-01-11 - 2026-01-31",
    "type": "trip"
  },
  {
    "id": 37,
    "location": "New York, USA (Home)",
    "coordinates": [-74.0060, 40.7128],
    "date": "2026-01-31",
    "type": "home"
  },
  {
    "id": 38,
    "location": "New York, USA (Current)",
    "coordinates": [-74.0060, 40.7128],
    "date": "2026-02-01 - Present",
    "type": "current"
  }
]
