[
  {
    "location": "Karachi",
    "coordinates": [67.1608, 24.9065],
    "date": "Jul 16, 2016",
    "airline": "Emirates / JetBlue",
    "type": "departure"
  },
  {
    "location": "Rochester",
    "coordinates": [-77.6724, 43.1189],
    "date": "Jul 16, 2016",
    "airline": "Emirates / JetBlue",
    "type": "arrival"
  },
  {
    "location": "Newark",
    "coordinates": [-74.1745, 40.6895],
    "date": "Oct 31, 2017",
    "airline": "United Airlines",
    "type": "departure"
  },
  {
    "location": "San Francisco",
    "coordinates": [-122.3790, 37.6213],
    "date": "Oct 31, 2017",
    "airline": "United Airlines",
    "type": "arrival"
  },
  {
    "location": "San Francisco",
    "coordinates": [-122.3790, 37.6213],
    "date": "Nov 4, 2017",
    "airline": "United Airlines",
    "type": "departure"
  },
  {
    "location": "Newark",
    "coordinates": [-74.1745, 40.6895],
    "date": "Nov 4, 2017",
    "airline": "United Airlines",
    "type": "arrival"
  },
  {
    "location": "New York",
    "coordinates": [-73.7781, 40.6413],
    "date": "Jan 3, 2018",
    "airline": "JetBlue Airways",
    "type": "departure"
  },
  {
    "location": "Oakland",
    "coordinates": [-122.2207, 37.7213],
    "date": "Jan 3, 2018",
    "airline": "JetBlue Airways",
    "type": "arrival"
  },
  {
    "location": "San Francisco",
    "coordinates": [-122.3790, 37.6213],
    "date": "Sep 2, 2018",
    "airline": "United Airlines",
    "type": "departure"
  },
  {
    "location": "Las Vegas",
    "coordinates": [-115.1537, 36.0840],
    "date": "Sep 2, 2018",
    "airline": "United Airlines",
    "type": "arrival"
  },
  {
    "location": "Los Angeles",
    "coordinates": [-118.4085, 33.9416],
    "date": "Sep 7, 2018",
    "airline": "Alaska Airlines",
    "type": "departure"
  },
  {
    "location": "San Francisco",
    "coordinates": [-122.3790, 37.6213],
    "date": "Sep 7, 2018",
    "airline": "Alaska Airlines",
    "type": "arrival"
  },
  {
    "location": "San Francisco",
    "coordinates": [-122.3790, 37.6213],
    "date": "Nov 21, 2018",
    "airline": "Alaska Airlines",
    "type": "departure"
  },
  {
    "location": "Seattle",
    "coordinates": [-122.3088, 47.4502],
    "date": "Nov 21, 2018",
    "airline": "Alaska Airlines",
    "type": "arrival"
  },
  {
    "location": "Seattle",
    "coordinates": [-122.3088, 47.4502],
    "date": "Nov 26, 2018",
    "airline": "Alaska Airlines",
    "type": "departure"
  },
  {
    "location": "Oakland",
    "coordinates": [-122.2207, 37.7213],
    "date": "Nov 26, 2018",
    "airline": "Alaska Airlines",
    "type": "arrival"
  },
  {
    "location": "San Francisco",
    "coordinates": [-122.3790, 37.6213],
    "date": "Jan 16, 2019",
    "airline": "Alaska Airlines",
    "type": "departure"
  },
  {
    "location": "Chicago",
    "coordinates": [-87.9073, 41.9742],
    "date": "Jan 16, 2019",
    "airline": "Alaska Airlines",
    "type": "arrival"
  },
  {
    "location": "Chicago",
    "coordinates": [-87.9073, 41.9742],
    "date": "Jan 22, 2019",
    "airline": "Alaska Airlines",
    "type": "departure"
  },
  {
    "location": "San Francisco",
    "coordinates": [-122.3790, 37.6213],
    "date": "Jan 22, 2019",
    "airline": "Alaska Airlines",
    "type": "arrival"
  },
  {
    "location": "San Francisco",
    "coordinates": [-122.3790, 37.6213],
    "date": "Oct 18, 2019",
    "airline": "Alaska Airlines",
    "type": "departure"
  },
  {
    "location": "Newark",
    "coordinates": [-74.1745, 40.6895],
    "date": "Oct 18, 2019",
    "airline": "Alaska Airlines",
    "type": "arrival"
  },
  {
    "location": "Seattle",
    "coordinates": [-122.3088, 47.4502],
    "date": "Sep 7, 2021",
    "airline": "Alaska Airlines",
    "type": "departure"
  },
  {
    "location": "San Francisco",
    "coordinates": [-122.3790, 37.6213],
    "date": "Sep 7, 2021",
    "airline": "Alaska Airlines",
    "type": "arrival"
  },
  {
    "location": "San Francisco",
    "coordinates": [-122.3790, 37.6213],
    "date": "Sep 11, 2021",
    "airline": "Alaska Airlines",
    "type": "departure"
  },
  {
    "location": "New York",
    "coordinates": [-73.7781, 40.6413],
    "date": "Sep 11, 2021",
    "airline": "Alaska Airlines",
    "type": "arrival"
  },
  {
    "location": "Toronto",
    "coordinates": [-79.6248, 43.6777],
    "date": "Dec 4, 2021",
    "airline": "Emirates",
    "type": "departure"
  },
  {
    "location": "Karachi",
    "coordinates": [67.1608, 24.9065],
    "date": "Dec 4, 2021",
    "airline": "Emirates",
    "type": "arrival"
  },
  {
    "location": "Karachi",
    "coordinates": [67.1608, 24.9065],
    "date": "Jan 7, 2022",
    "airline": "Emirates",
    "type": "departure"
  },
  {
    "location": "New York",
    "coordinates": [-73.7781, 40.6413],
    "date": "Jan 7, 2022",
    "airline": "Emirates",
    "type": "arrival"
  },
  {
    "location": "New York",
    "coordinates": [-73.8740, 40.7769],
    "date": "Apr 6, 2022",
    "airline": "American Airlines",
    "type": "departure"
  },
  {
    "location": "San Antonio",
    "coordinates": [-98.4683, 29.5312],
    "date": "Apr 6, 2022",
    "airline": "American Airlines",
    "type": "arrival"
  },
  {
    "location": "Austin",
    "coordinates": [-97.6664, 30.1975],
    "date": "Apr 22, 2022",
    "airline": "Aeromexico",
    "type": "departure"
  },
  {
    "location": "Mexico City",
    "coordinates": [-99.0719, 19.4361],
    "date": "Apr 22, 2022",
    "airline": "Aeromexico",
    "type": "arrival"
  },
  {
    "location": "Mexico City",
    "coordinates": [-99.0719, 19.4361],
    "date": "May 8, 2022",
    "airline": "American Airlines",
    "type": "departure"
  },
  {
    "location": "New York",
    "coordinates": [-73.8740, 40.7769],
    "date": "May 8, 2022",
    "airline": "American Airlines",
    "type": "arrival"
  },
  {
    "location": "New York",
    "coordinates": [-73.8740, 40.7769],
    "date": "Jun 30, 2022",
    "airline": "United Airlines",
    "type": "departure"
  },
  {
    "location": "Denver",
    "coordinates": [-104.6737, 39.8561],
    "date": "Jun 30, 2022",
    "airline": "United Airlines",
    "type": "arrival"
  },
  {
    "location": "Denver",
    "coordinates": [-104.6737, 39.8561],
    "date": "Jul 12, 2022",
    "airline": "Alaska Airlines",
    "type": "departure"
  },
  {
    "location": "Seattle",
    "coordinates": [-122.3088, 47.4502],
    "date": "Jul 12, 2022",
    "airline": "Alaska Airlines",
    "type": "arrival"
  },
  {
    "location": "New York",
    "coordinates": [-73.8740, 40.7769],
    "date": "Jul 29, 2022",
    "airline": "Air Canada",
    "type": "departure"
  },
  {
    "location": "Toronto",
    "coordinates": [-79.6248, 43.6777],
    "date": "Jul 29, 2022",
    "airline": "Air Canada",
    "type": "arrival"
  },
  {
    "location": "Toronto",
    "coordinates": [-79.6248, 43.6777],
    "date": "Aug 28, 2022",
    "airline": "American Airlines",
    "type": "departure"
  },
  {
    "location": "New York",
    "coordinates": [-73.8740, 40.7769],
    "date": "Aug 28, 2022",
    "airline": "American Airlines",
    "type": "arrival"
  },
  {
    "location": "New York",
    "coordinates": [-73.8740, 40.7769],
    "date": "Oct 15, 2022",
    "airline": "American Airlines",
    "type": "departure"
  },
  {
    "location": "Toronto",
    "coordinates": [-79.6248, 43.6777],
    "date": "Oct 15, 2022",
    "airline": "American Airlines",
    "type": "arrival"
  },
  {
    "location": "Toronto",
    "coordinates": [-79.6248, 43.6777],
    "date": "Dec 16, 2022",
    "airline": "Emirates",
    "type": "departure"
  },
  {
    "location": "Karachi",
    "coordinates": [67.1608, 24.9065],
    "date": "Dec 16, 2022",
    "airline": "Emirates",
    "type": "arrival"
  },
  {
    "location": "Karachi",
    "coordinates": [67.1608, 24.9065],
    "date": "Jan 14, 2023",
    "airline": "Emirates",
    "type": "departure"
  },
  {
    "location": "New York",
    "coordinates": [-73.7781, 40.6413],
    "date": "Jan 14, 2023",
    "airline": "Emirates",
    "type": "arrival"
  },
  {
    "location": "New York",
    "coordinates": [-73.8740, 40.7769],
    "date": "Mar 16, 2023",
    "airline": "American Airlines",
    "type": "departure"
  },
  {
    "location": "Dallas/Fort Worth",
    "coordinates": [-97.0403, 32.8998],
    "date": "Mar 16, 2023",
    "airline": "American Airlines",
    "type": "arrival"
  },
  {
    "location": "Mexico City",
    "coordinates": [-99.0719, 19.4361],
    "date": "Apr 2, 2023",
    "airline": "American Airlines",
    "type": "departure"
  },
  {
    "location": "New York",
    "coordinates": [-73.7781, 40.6413],
    "date": "Apr 2, 2023",
    "airline": "American Airlines",
    "type": "arrival"
  },
  {
    "location": "Toronto",
    "coordinates": [-79.6248, 43.6777],
    "date": "May 28, 2023",
    "airline": "Delta Air Lines",
    "type": "departure"
  },
  {
    "location": "New York",
    "coordinates": [-73.8740, 40.7769],
    "date": "May 28, 2023",
    "airline": "Delta Air Lines",
    "type": "arrival"
  },
  {
    "location": "New York",
    "coordinates": [-73.8740, 40.7769],
    "date": "Jul 26, 2023",
    "airline": "American Airlines",
    "type": "departure"
  },
  {
    "location": "Toronto",
    "coordinates": [-79.6248, 43.6777],
    "date": "Jul 26, 2023",
    "airline": "American Airlines",
    "type": "arrival"
  },
  {
    "location": "Toronto",
    "coordinates": [-79.6248, 43.6777],
    "date": "Sep 15, 2023",
    "airline": "Air Canada",
    "type": "departure"
  },
  {
    "location": "New York",
    "coordinates": [-73.8740, 40.7769],
    "date": "Sep 15, 2023",
    "airline": "Air Canada",
    "type": "arrival"
  },
  {
    "location": "New York",
    "coordinates": [-73.8740, 40.7769],
    "date": "Nov 6, 2023",
    "airline": "Delta Air Lines",
    "type": "departure"
  },
  {
    "location": "Milwaukee",
    "coordinates": [-87.8966, 42.9475],
    "date": "Nov 6, 2023",
    "airline": "Delta Air Lines",
    "type": "arrival"
  },
  {
    "location": "Milwaukee",
    "coordinates": [-87.8966, 42.9475],
    "date": "Nov 13, 2023",
    "airline": "Delta Air Lines",
    "type": "departure"
  },
  {
    "location": "New York",
    "coordinates": [-73.8740, 40.7769],
    "date": "Nov 13, 2023",
    "airline": "Delta Air Lines",
    "type": "arrival"
  },
  {
    "location": "Karachi",
    "coordinates": [67.1608, 24.9065],
    "date": "Jan 20, 2024",
    "airline": "Emirates",
    "type": "departure"
  },
  {
    "location": "Toronto",
    "coordinates": [-79.6248, 43.6777],
    "date": "Jan 20, 2024",
    "airline": "Emirates",
    "type": "arrival"
  },
  {
    "location": "Toronto",
    "coordinates": [-79.6248, 43.6777],
    "date": "Feb 28, 2024",
    "airline": "Delta Air Lines",
    "type": "departure"
  },
  {
    "location": "New York",
    "coordinates": [-73.8740, 40.7769],
    "date": "Feb 28, 2024",
    "airline": "Delta Air Lines",
    "type": "arrival"
  },
  {
    "location": "New York",
    "coordinates": [-73.7781, 40.6413],
    "date": "Mar 27, 2024",
    "airline": "Delta Air Lines",
    "type": "departure"
  },
  {
    "location": "Austin",
    "coordinates": [-97.6664, 30.1975],
    "date": "Mar 27, 2024",
    "airline": "Delta Air Lines",
    "type": "arrival"
  },
  {
    "location": "Austin",
    "coordinates": [-97.6664, 30.1975],
    "date": "Apr 2, 2024",
    "airline": "Delta Air Lines",
    "type": "departure"
  },
  {
    "location": "New York",
    "coordinates": [-73.7781, 40.6413],
    "date": "Apr 2, 2024",
    "airline": "Delta Air Lines",
    "type": "arrival"
  },
  {
    "location": "New York",
    "coordinates": [-73.8740, 40.7769],
    "date": "Apr 22, 2024",
    "airline": "American Airlines",
    "type": "departure"
  },
  {
    "location": "Oaxaca",
    "coordinates": [-96.7266, 17.0000],
    "date": "Apr 22, 2024",
    "airline": "American Airlines",
    "type": "arrival"
  },
  {
    "location": "New York",
    "coordinates": [-73.8740, 40.7769],
    "date": "Jul 14, 2024",
    "airline": "American Airlines",
    "type": "departure"
  },
  {
    "location": "Toronto",
    "coordinates": [-79.6248, 43.6777],
    "date": "Jul 14, 2024",
    "airline": "American Airlines",
    "type": "arrival"
  },
  {
    "location": "Toronto",
    "coordinates": [-79.6248, 43.6777],
    "date": "Sep 19, 2024",
    "airline": "Air Canada",
    "type": "departure"
  },
  {
    "location": "New York",
    "coordinates": [-73.8740, 40.7769],
    "date": "Sep 19, 2024",
    "airline": "Air Canada",
    "type": "arrival"
  },
  {
    "location": "New York",
    "coordinates": [-73.8740, 40.7769],
    "date": "Dec 22, 2024",
    "airline": "American Airlines",
    "type": "departure"
  },
  {
    "location": "Dallas/Fort Worth",
    "coordinates": [-97.0403, 32.8998],
    "date": "Dec 22, 2024",
    "airline": "American Airlines",
    "type": "arrival"
  },
  {
    "location": "San Juan",
    "coordinates": [-66.0018, 18.4394],
    "date": "Feb 15, 2025",
    "airline": "Delta Air Lines",
    "type": "departure"
  },
  {
    "location": "New York",
    "coordinates": [-73.7781, 40.6413],
    "date": "Feb 15, 2025",
    "airline": "Delta Air Lines",
    "type": "arrival"
  },
  {
    "location": "New York",
    "coordinates": [-73.8740, 40.7769],
    "date": "Jul 26, 2025",
    "airline": "Delta Air Lines",
    "type": "departure"
  },
  {
    "location": "Milwaukee",
    "coordinates": [-87.8966, 42.9475],
    "date": "Jul 26, 2025",
    "airline": "Delta Air Lines",
    "type": "arrival"
  },
  {
    "location": "Milwaukee",
    "coordinates": [-87.8966, 42.9475],
    "date": "Aug 9, 2025",
    "airline": "American Airlines",
    "type": "departure"
  },
  {
    "location": "Mexico City",
    "coordinates": [-99.0719, 19.4361],
    "date": "Aug 9, 2025",
    "airline": "American Airlines",
    "type": "arrival"
  },
  {
    "location": "Mexico City",
    "coordinates": [-99.0719, 19.4361],
    "date": "Sep 5, 2025",
    "airline": "Delta Air Lines",
    "type": "departure"
  },
  {
    "location": "San Francisco",
    "coordinates": [-122.3790, 37.6213],
    "date": "Sep 5, 2025",
    "airline": "Delta Air Lines",
    "type": "arrival"
  },
  {
    "location": "San Francisco",
    "coordinates": [-122.3790, 37.6213],
    "date": "Sep 15, 2025",
    "airline": "Sun Country Airlines",
    "type": "departure"
  },
  {
    "location": "Minneapolis/St Paul",
    "coordinates": [-93.2223, 44.8848],
    "date": "Sep 15, 2025",
    "airline": "Sun Country Airlines",
    "type": "arrival"
  },
  {
    "location": "Minneapolis/St Paul",
    "coordinates": [-93.2223, 44.8848],
    "date": "Sep 26, 2025",
    "airline": "Sun Country Airlines",
    "type": "departure"
  },
  {
    "location": "Austin",
    "coordinates": [-97.6664, 30.1975],
    "date": "Sep 26, 2025",
    "airline": "Sun Country Airlines",
    "type": "arrival"
  },
  {
    "location": "Austin",
    "coordinates": [-97.6664, 30.1975],
    "date": "Oct 4, 2025",
    "airline": "American Airlines",
    "type": "departure"
  },
  {
    "location": "Baltimore",
    "coordinates": [-76.6682, 39.1754],
    "date": "Oct 4, 2025",
    "airline": "American Airlines",
    "type": "arrival"
  },
  {
    "location": "New York",
    "coordinates": [-73.8740, 40.7769],
    "date": "Nov 6, 2025",
    "airline": "Delta Air Lines",
    "type": "departure"
  },
  {
    "location": "Toronto",
    "coordinates": [-79.6248, 43.6777],
    "date": "Nov 6, 2025",
    "airline": "Delta Air Lines",
    "type": "arrival"
  },
  {
    "location": "Toronto",
    "coordinates": [-79.6248, 43.6777],
    "date": "Nov 13, 2025",
    "airline": "Air Canada",
    "type": "departure"
  },
  {
    "location": "London",
    "coordinates": [-0.4543, 51.4700],
    "date": "Nov 13, 2025",
    "airline": "Air Canada",
    "type": "arrival"
  },
  {
    "location": "London",
    "coordinates": [-0.4543, 51.4700],
    "date": "Dec 9, 2025",
    "airline": "Emirates",
    "type": "departure"
  },
  {
    "location": "Karachi",
    "coordinates": [67.1608, 24.9065],
    "date": "Dec 9, 2025",
    "airline": "Emirates",
    "type": "arrival"
  },
  {
    "location": "Karachi",
    "coordinates": [67.1608, 24.9065],
    "date": "Jan 11, 2026",
    "airline": "Emirates",
    "type": "departure"
  },
  {
    "location": "Istanbul",
    "coordinates": [28.7297, 41.2769],
    "date": "Jan 11, 2026",
    "airline": "Emirates",
    "type": "arrival"
  },
  {
    "location": "Istanbul",
    "coordinates": [28.7297, 41.2769],
    "date": "Jan 31, 2026",
    "airline": "Turkish Airlines",
    "type": "departure"
  },
  {
    "location": "New York",
    "coordinates": [-73.7781, 40.6413],
    "date": "Jan 31, 2026",
    "airline": "Turkish Airlines",
    "type": "arrival"
  }
]
